[
  {
    "id": "b41ce02e-69a3-4a28-8bf8-2ab48d0d4135",
    "name": "Blue Heron Beach Resort",
    "street_address": "13428 Blue Heron Beach Dr",
    "locality": "Orlando",
    "region": "FL",
    "postal_code": "32821",
    "country": "US",
    "latitude": "28.3687305",
    "longitude": "-81.5020262",
    "content_updated_at": "2022-02-03T06:39:50Z"
  },
  {
    "id": "bf7bdcbc-83e5-4fba-b3a9-bc0f97f222f5",
    "name": "Caribe Royale Orlando",
    "street_address": "8101 World Center Dr",
    "locality": "Orlando",
    "region": "FL",
    "postal_code": "32821",
    "country": "US",
    "latitude": "28.357391",
    "longitude": "-81.491759",
    "content_updated_at": "2022-01-31T10:06:07Z"
  },
  {
    "id": "7547d917-54f9-4836-8d3a-1848882c95ab",
    "name": "Fantasy World Villas Resort",
    "street_address": "5005 Kyng's Heath Road",
    "locality": "Kissimmee",
    "region": "FL",
    "postal_code": "34746",
    "country": "US",
    "latitude": "28.3352",
    "longitude": "-81.485307",
    "content_updated_at": "2022-02-03T06:33:12Z"
  },
  {
    "id": "4a312e50-b40f-4a3b-b04a-c15b32897c3a",
    "name": "Luxe Hotel Sunset Blvd",
    "street_address": "11461 Sunset Blvd",
    "locality": "Los Angeles",
    "region": "CA",
    "postal_code": "90049",
    "country": "US",
    "latitude": "34.07262",
    "longitude": "-118.46865",
    "content_updated_at": "2022-02-03T05:40:50Z"
  },
  {
    "id": "4e6260fb-923d-4a8f-ac59-9b8bbd7817bb",
    "name": "The Evelyn Hotel",
    "street_address": "7 E 27th St",
    "locality": "New York",
    "region": "NY",
    "postal_code": "10016",
    "country": "US",
    "latitude": "40.743809",
    "longitude": "-73.987129",
    "content_updated_at": "2022-01-31T10:04:48Z"
  },
  {
    "id": "6a8c9f13-9737-4e5d-984e-460d5e7049f1",
    "name": "Americana Inn",
    "street_address": "69 West 38th Street",
    "locality": "New York",
    "region": "NY",
    "postal_code": "10018",
    "country": "US",
    "latitude": "40.7521266",
    "longitude": "-73.985442",
    "content_updated_at": "2022-02-03T05:38:04Z"
  },
  {
    "id": "66ab1fac-fbfb-4460-afec-ecc86884c36c",
    "name": "Belvedere Hotel",
    "street_address": "319 West 48th Street",
    "locality": "New York",
    "region": "NY",
    "postal_code": "10036",
    "country": "US",
    "latitude": "40.7619",
    "longitude": "-73.987805",
    "content_updated_at": "2022-02-03T05:33:08Z"
  },
  {
    "id": "2e984b51-46b0-4ef2-a53b-8a0c162d5fb0",
    "name": "Best Western Adams Inn",
    "street_address": "29 Hancock Street",
    "locality": "Quincy",
    "region": "MA",
    "postal_code": "2171",
    "country": "US",
    "latitude": "42.2833999",
    "longitude": "-71.0383096",
    "content_updated_at": "2022-02-03T05:39:41Z"
  },
  {
    "id": "2968f9c4-0421-45ef-b739-92a3ed720df9",
    "name": "Plus Americania",
    "street_address": "121 7th Street",
    "locality": "San Francisco",
    "region": "CA",
    "postal_code": "94108",
    "country": "US",
    "latitude": "37.778677",
    "longitude": "-122.409878",
    "content_updated_at": "2022-02-03T05:40:30Z"
  },
  {
    "id": "e9fb59b5-df45-4295-9158-a33418e2e6ec",
    "name": "Comfort Inn & Suites Logan International Airport",
    "street_address": "85 American Legion Highway",
    "locality": "Revere",
    "region": "MA",
    "postal_code": "MA 02151",
    "country": "US",
    "latitude": "42.410701",
    "longitude": "-71.002",
    "content_updated_at": "2022-02-02T22:33:53Z"
  },
  {
    "id": "0d6f111e-0cb8-4923-917a-853f64626cac",
    "name": "Executive Hotel Vintage Court",
    "street_address": "650 Bush Street",
    "locality": "San Francisco",
    "region": "CA",
    "postal_code": "94108",
    "country": "US",
    "latitude": "37.790463",
    "longitude": "-122.408109",
    "content_updated_at": "2022-02-03T04:38:32Z"
  },
  {
    "id": "60f1786c-602e-4379-b180-41b3ddca0361",
    "name": "Hotel Kabuki, a Joie de Vivre Boutique Hotel",
    "street_address": "1625 Post Street",
    "locality": "San Francisco",
    "region": "CA",
    "postal_code": "94115",
    "country": "US",
    "latitude": "37.785393",
    "longitude": "-122.42857",
    "content_updated_at": "2022-02-03T04:38:05Z"
  },
  {
    "id": "bde05ff1-90a6-4345-a6be-b358e94120d8",
    "name": "Hotel Nikko San Francisco",
    "street_address": "222 Mason Street",
    "locality": "San Francisco",
    "region": "CA",
    "postal_code": "94102",
    "country": "US",
    "latitude": "37.785679",
    "longitude": "-122.409253",
    "content_updated_at": "2022-02-03T04:37:32Z"
  },
  {
    "id": "6fc03609-920f-4553-9794-680b21d1145e",
    "name": "Hotel Whitcomb",
    "street_address": "1231 Market Street",
    "locality": "San Francisco",
    "region": "CA",
    "postal_code": "94103",
    "country": "US",
    "latitude": "37.7782037",
    "longitude": "-122.4154786",
    "content_updated_at": "2022-02-03T05:37:40Z"
  },
  {
    "id": "11058125-91b5-404a-9b70-0663d39281b0",
    "name": "Hotel Belleclaire",
    "street_address": "250 West 77th Street",
    "locality": "New York",
    "region": "NY",
    "postal_code": "10024",
    "country": "US",
    "latitude": "40.7826849",
    "longitude": "-73.9813171",
    "content_updated_at": "2022-02-03T06:40:08Z"
  },
  {
    "id": "d5e2253f-66ce-44c3-bbd4-d2300e7d8e8b",
    "name": "The Jane Hotel",
    "street_address": "113 Jane Street",
    "locality": "New York",
    "region": "NY",
    "postal_code": "10014",
    "country": "US",
    "latitude": "40.7381411",
    "longitude": "-74.0090347",
    "content_updated_at": "2022-02-03T05:35:48Z"
  },
  {
    "id": "bf207e11-94dd-40f2-b8ac-22cca56f3986",
    "name": "Townhouse Hotel",
    "street_address": "150 20th Street",
    "locality": "Miami Beach",
    "region": "FL",
    "postal_code": "33139",
    "country": "US",
    "latitude": "25.795203",
    "longitude": "-80.128818",
    "content_updated_at": "2022-02-03T04:34:37Z"
  },
  {
    "id": "c077aeb2-1091-45bd-95df-ae3bbfe8cfb0",
    "name": "Hotel Mela Times Square",
    "street_address": "120 W. 44th St.",
    "locality": "New York",
    "region": "NY",
    "postal_code": "10036",
    "country": "US",
    "latitude": "40.756397",
    "longitude": "-73.984423",
    "content_updated_at": "2022-02-03T05:38:15Z"
  },
  {
    "id": "da60fb75-e327-4150-add7-1b2de58a347f",
    "name": "The Mansfield",
    "street_address": "12 West 44th Street",
    "locality": "New York",
    "region": "NY",
    "postal_code": "10036",
    "country": "US",
    "latitude": "40.75501",
    "longitude": "-73.981095",
    "content_updated_at": "2022-02-03T05:38:24Z"
  },
  {
    "id": "be4a404d-ee8e-4289-aeb7-876debee719a",
    "name": "St. Gregory Hotel",
    "street_address": "2033 M Street NW",
    "locality": "Washington",
    "region": "DC",
    "postal_code": "20036",
    "country": "US",
    "latitude": "38.905963",
    "longitude": "-77.046277",
    "content_updated_at": "2022-02-03T04:35:00Z"
  }
]
